,City,Lat,Lng,Max Temp,Humidity,Cloudiness,Wind Speed,Country,Date
0,Rikitea,-23.12,-134.97,23.22,76,61,7.55,PF,1604944827
1,Vaini,-21.2,-175.2,22.0,94,20,2.1,TO,1604944852
2,Kapaa,22.08,-159.32,26.0,78,20,8.2,US,1604944657
3,Arraial do Cabo,-22.97,-42.03,28.0,78,40,4.1,BR,1604944567
4,Yellowknife,62.46,-114.35,-2.22,79,75,1.5,CA,1604944642
5,Busselton,-33.65,115.33,12.22,69,63,8.53,AU,1604944806
6,Oktyabr'skiy,54.48,53.47,0.54,90,100,4.86,RU,1604944853
7,Maniitsoq,65.42,-52.9,-6.64,83,79,6.77,GL,1604944853
8,Shangzhi,45.22,127.97,-8.62,90,0,3.54,CN,1604944853
9,Albany,42.6,-73.97,20.0,42,0,0.86,US,1604944819
10,Grand Gaube,-20.01,57.66,23.33,70,14,3.13,MU,1604944854
11,Cherskiy,68.75,161.3,-16.31,94,100,2.51,RU,1604944854
12,Hilo,19.73,-155.09,22.0,83,75,3.6,US,1604944832
13,Bluff,-46.6,168.33,7.2,85,2,2.96,NZ,1604944855
14,Rio Grande,-32.03,-52.1,19.0,93,90,5.7,BR,1604944814
15,Lebu,-37.62,-73.65,14.67,71,6,8.61,CL,1604944855
16,Hong Kong,22.29,114.16,22.78,75,100,0.45,HK,1604944692
17,Zolochiv,49.81,24.89,7.0,93,90,2.0,UA,1604944855
18,Ribeira Grande,38.52,-28.7,19.0,82,75,10.3,PT,1604944828
19,Huilong,31.81,121.66,13.89,73,0,1.54,CN,1604944856
20,Mataura,-46.19,168.86,3.74,94,5,0.88,NZ,1604944807
21,Malanje,-9.54,16.34,20.19,94,61,2.72,AO,1604944857
22,Swanzey,42.87,-72.28,20.0,49,5,0.89,US,1604944857
23,Cap Malheureux,-19.98,57.61,23.33,70,11,3.13,MU,1604944857
24,Tiksi,71.69,128.87,-22.81,87,0,2.91,RU,1604944857
25,Bud,39.45,-86.18,22.78,64,90,3.1,US,1604944858
26,Cabedelo,-6.98,-34.83,29.0,74,75,7.2,BR,1604944858
27,Cidreira,-30.18,-50.21,19.5,91,100,7.93,BR,1604944806
28,Ushuaia,-54.8,-68.3,10.0,27,0,8.7,AR,1604944523
29,Meulaboh,4.14,96.13,25.12,88,93,1.81,ID,1604944859
30,Ozinki,51.18,49.68,1.63,85,0,3.04,RU,1604944859
31,George Town,5.41,100.34,26.0,94,20,0.5,MY,1604944859
32,Hermanus,-34.42,19.23,14.44,65,23,3.79,ZA,1604944823
33,Chapais,49.78,-74.85,14.0,76,75,5.7,CA,1604944860
34,Port Keats,-14.25,129.55,28.1,80,33,2.74,AU,1604944860
35,Kumul,42.8,93.45,4.46,57,19,3.33,CN,1604944861
36,Bengkulu,-3.8,102.27,24.57,81,100,1.69,ID,1604944861
37,Khatanga,71.97,102.5,-5.55,98,100,4.35,RU,1604944829
38,Saint George,37.1,-113.58,6.11,60,90,2.1,US,1604944862
39,Tuktoyaktuk,69.45,-133.04,-18.0,84,90,5.7,CA,1604944863
40,Iqaluit,63.75,-68.51,-14.0,77,75,3.1,CA,1604944732
41,Hambantota,6.12,81.12,26.07,85,56,4.55,LK,1604944863
42,Tasiilaq,65.61,-37.64,-0.09,97,100,18.21,GL,1604944863
43,Tuatapere,-46.13,167.68,5.48,91,10,1.55,NZ,1604944864
44,Puerto Ayora,-0.74,-90.35,23.0,73,75,7.2,EC,1604944823
45,Saint-Philippe,-21.36,55.77,24.0,73,0,4.6,RE,1604944824
46,Tadine,-21.55,167.88,21.21,72,28,5.59,NC,1604944864
47,Narsaq,60.92,-46.05,-3.0,86,75,1.0,GL,1604944864
48,Guápiles,10.22,-83.79,25.56,73,40,4.6,CR,1604944669
49,Hobart,-42.88,147.33,12.22,81,98,4.6,AU,1604944669
50,Ust-Tsilma,65.44,52.15,-3.0,97,88,1.94,RU,1604944865
51,Punta Arenas,-53.15,-70.92,8.0,87,75,4.6,CL,1604944745
52,Tiznit Province,29.58,-9.5,18.45,60,30,2.17,MA,1604944865
53,Chokurdakh,70.63,147.92,-27.49,90,59,1.2,RU,1604944865
54,Bambous Virieux,-20.34,57.76,23.33,73,20,5.7,MU,1604944866
55,Vyshestebliyevskaya,45.2,37.02,11.0,76,48,2.0,RU,1604944866
56,Saint Paul Harbor,57.79,-152.41,4.0,60,1,4.6,US,1604944833
57,Esperance,-33.87,121.9,13.0,100,90,4.1,AU,1604944866
58,Camacha,33.08,-16.33,19.0,63,40,3.6,PT,1604944866
59,Atuona,-9.8,-139.03,25.24,73,18,6.15,PF,1604944816
60,West Plains,36.73,-91.85,19.0,88,90,3.6,US,1604944867
61,Barrow,71.29,-156.79,-12.0,78,40,5.7,US,1604944809
62,Thunder Bay,48.4,-89.32,17.0,77,75,6.2,CA,1604944632
63,Dikson,73.51,80.55,-14.87,95,100,3.92,RU,1604944867
64,Aquiraz,-3.9,-38.39,31.0,58,40,7.7,BR,1604944620
65,Portel,-1.94,-50.82,32.7,51,43,2.23,BR,1604944748
66,Cabo San Lucas,22.89,-109.91,28.0,56,5,8.2,MX,1604944731
67,Soure,-0.72,-48.52,29.81,66,83,5.68,BR,1604944868
68,Saskylakh,71.92,114.08,-13.56,93,100,12.95,RU,1604944808
69,Butaritari,3.07,172.79,27.85,73,48,5.78,KI,1604944869
70,Atar,20.52,-13.05,34.2,10,0,4.51,MR,1604944869
71,Hithadhoo,-0.6,73.08,28.73,76,91,5.79,MV,1604944869
72,Oranjemund,-28.55,16.43,15.2,60,0,12.9,NA,1604944870
73,Chernyshevskiy,63.01,112.47,0.86,98,100,5.25,RU,1604944870
74,Carnarvon,-24.87,113.63,19.0,63,40,9.3,AU,1604944817
75,Darovskoy,58.77,47.96,-1.05,97,100,4.3,RU,1604944870
76,Flin Flon,54.77,-101.86,-12.0,78,40,7.7,CA,1604944627
77,Kaitangata,-46.28,169.85,10.0,77,5,0.45,NZ,1604944870
78,Westfield,42.13,-72.75,22.22,52,1,1.5,US,1604944871
79,Northam,51.03,-4.22,12.78,94,100,4.02,GB,1604944871
80,Yinchuan,38.47,106.27,7.92,53,0,2.73,CN,1604944871
81,Williamsburg,37.27,-76.71,24.44,50,1,1.8,US,1604944742
82,Tulagi,-9.1,160.15,25.0,94,20,1.0,SB,1604944872
83,Katsuura,35.13,140.3,12.0,54,75,3.1,JP,1604944872
84,Prince George,53.92,-122.75,-2.78,79,90,8.2,CA,1604944803
85,Shimoda,34.67,138.95,12.65,66,41,6.23,JP,1604944872
86,Beringovskiy,63.05,179.32,2.48,95,100,9.26,RU,1604944872
87,Thompson,55.74,-97.86,-9.0,85,90,6.7,CA,1604944821
88,Port Elizabeth,-33.92,25.57,15.0,67,0,3.6,ZA,1604944873
89,São João da Barra,-21.64,-41.05,30.0,66,40,2.1,BR,1604944786
90,San Cristobal,7.77,-72.22,30.0,62,40,4.1,VE,1604944604
91,Castro,-24.79,-50.01,28.2,41,41,4.93,BR,1604944873
92,Codrington,-38.27,141.97,19.78,41,24,5.29,AU,1604944873
93,Upernavik,72.79,-56.15,-17.41,82,98,4.17,GL,1604944873
94,Ust'-Shonosha,61.15,41.34,0.15,95,100,3.07,RU,1604944874
95,Husavik,66.04,-17.34,1.0,86,0,1.5,IS,1604944815
96,Sobolevo,54.43,31.9,0.88,90,25,3.57,RU,1604944874
97,Vila,42.03,-8.16,11.67,90,40,0.98,PT,1604944874
98,Dera Bugti,29.03,69.15,18.84,26,2,1.68,PK,1604944875
99,Constitución,-35.33,-72.42,19.26,50,69,7.5,CL,1604944875
100,Kruisfontein,-34.0,24.73,14.44,74,7,0.45,ZA,1604944875
101,Avarua,-21.21,-159.78,22.0,94,60,4.44,CK,1604944775
102,Najrān,17.49,44.13,24.0,29,0,1.08,SA,1604944876
103,Leningradskiy,69.38,178.42,-7.99,94,97,2.63,RU,1604944876
104,Norman Wells,65.28,-126.83,-6.0,92,90,5.1,CA,1604944876
105,Belyy Yar,53.6,91.39,2.0,80,0,5.0,RU,1604944876
106,Rocha,-34.48,-54.33,21.43,58,100,4.78,UY,1604944876
107,Jamestown,42.1,-79.24,21.11,45,1,2.6,US,1604944828
108,Cayenne,4.93,-52.33,31.0,62,20,5.1,GF,1604944788
109,Mahébourg,-20.41,57.7,23.0,73,20,5.7,MU,1604944877
110,Nome,64.5,-165.41,0.56,92,90,7.2,US,1604944878
111,Half Moon Bay,37.46,-122.43,12.22,34,1,2.1,US,1604944853
112,Tarifa,36.01,-5.61,20.0,88,75,2.1,ES,1604944878
113,Rodolfo Sánchez Taboada,31.72,-116.57,15.56,62,66,0.89,MX,1604944878
114,Clyde River,70.47,-68.59,-19.0,70,40,7.2,CA,1604944879
115,Yurginskoye,56.82,67.39,-1.31,97,98,4.66,RU,1604944879
116,Moosomin,50.13,-101.67,-8.48,87,100,6.95,CA,1604944879
117,Ancud,-41.87,-73.82,19.0,52,0,6.2,CL,1604944879
118,Yerbogachën,61.28,108.01,2.0,88,100,4.6,RU,1604944880
119,Praia da Vitória,38.73,-27.07,19.0,68,40,10.26,PT,1604944880
120,Richards Bay,-28.78,32.04,21.23,76,98,5.74,ZA,1604944880
121,Kanigoro,-8.13,112.22,23.34,89,89,1.39,ID,1604944880
122,Izhevskoye,54.56,40.87,0.31,93,2,4.73,RU,1604944881
123,Verkhnevilyuysk,63.45,120.32,-12.91,94,100,4.32,RU,1604944881
124,Vardø,70.37,31.11,1.0,86,75,10.3,NO,1604944881
125,Naze,28.37,129.48,20.0,64,75,5.7,JP,1604944881
126,Riyadh,24.69,46.72,26.0,36,0,2.1,SA,1604944793
127,East London,-33.02,27.91,14.0,93,75,7.2,ZA,1604944820
128,Nikolskoye,59.7,30.79,5.0,80,40,6.0,RU,1604944828
129,Qaanaaq,77.48,-69.36,-21.49,70,0,3.47,GL,1604944882
130,Flinders,-34.58,150.86,12.78,82,9,0.45,AU,1604944882
131,Banepā,27.63,85.52,13.0,82,20,1.0,NP,1604944883
132,Manokwari,-0.87,134.08,25.85,80,48,1.1,ID,1604944883
133,Kārkala,13.2,74.98,27.0,83,20,2.1,IN,1604944696
134,Qingquan,30.45,115.26,12.96,55,0,1.07,CN,1604944883
135,Sarakhs,36.54,61.16,11.0,76,0,1.96,IR,1604944884
136,Arica,-18.48,-70.3,19.0,72,75,5.7,CL,1604944772
137,Santa Rosa,14.31,121.11,26.11,94,75,0.5,PH,1604944884
138,Poya,-21.35,165.15,19.84,76,48,3.84,NC,1604944884
139,Puri,19.8,85.85,20.0,88,0,3.67,IN,1604944885
140,New Norfolk,-42.78,147.06,12.22,66,92,1.37,AU,1604944885
141,Huarmey,-10.07,-78.15,21.14,63,69,5.44,PE,1604944885
142,Zabaykal'sk,49.63,117.32,-3.62,94,1,2.55,RU,1604944885
143,Aksu,41.12,80.26,4.55,56,96,0.26,CN,1604944885
144,Lorengau,-2.02,147.27,27.14,76,84,0.8,PG,1604944886
145,Faanui,-16.48,-151.75,25.77,81,87,6.65,PF,1604944886
146,Port Blair,11.67,92.75,27.05,83,4,5.09,IN,1604944886
147,Broome,42.25,-75.83,22.22,45,1,1.5,US,1604944886
148,Coyhaique,-45.58,-72.07,21.0,37,0,3.1,CL,1604944886
149,Beloha,-25.17,45.05,24.91,53,6,3.78,MG,1604944887
150,Pangnirtung,66.15,-65.71,-10.0,72,75,0.87,CA,1604944887
151,Mahenge,-8.68,36.72,21.93,71,63,2.3,TZ,1604944887
152,Mezen',65.85,44.24,-0.34,96,98,4.54,RU,1604944887
153,Geraldton,-28.77,114.6,16.0,63,40,6.7,AU,1604944857
154,Pevek,69.7,170.31,-7.62,93,99,3.2,RU,1604944822
155,Sitia,35.2,26.1,17.22,92,100,2.24,GR,1604944888
156,Dunedin,-45.87,170.5,10.0,77,44,1.52,NZ,1604944888
157,Kochki,54.34,80.48,1.68,94,100,10.39,RU,1604944888
158,Bredasdorp,-34.53,20.04,15.0,54,1,4.6,ZA,1604944829
159,Kavieng,-2.57,150.8,27.44,75,64,2.23,PG,1604944889
160,Egvekinot,66.32,-179.17,-5.92,97,100,7.32,RU,1604944889
161,Tigil',57.8,158.67,-7.62,92,12,0.78,RU,1604944889
162,Biak,-0.91,122.88,24.82,73,84,1.0,ID,1604944889
163,Tobias Barreto,-11.18,-38.0,29.37,53,67,5.35,BR,1604944889
164,Pacific Grove,36.62,-121.92,11.67,43,1,2.1,US,1604944663
165,Banda Aceh,5.56,95.32,26.1,81,92,1.84,ID,1604944890
166,Mana,5.66,-53.78,29.7,62,24,4.43,GF,1604944890
167,Neman,55.03,22.03,6.34,93,23,1.96,RU,1604944890
168,Raja,8.46,25.68,26.27,34,15,1.52,SS,1604944890
169,Saint-Augustin,51.23,-58.65,2.51,72,84,2.76,CA,1604944890
170,Ranot,7.78,100.32,26.04,79,68,2.18,TH,1604944891
171,Nyírbéltek,47.7,22.13,6.0,93,75,0.5,HU,1604944891
172,Meridian,43.61,-116.39,-0.56,63,90,5.7,US,1604944855
173,Malakal,9.53,31.66,27.18,28,13,1.61,SS,1604944891
174,Sur,22.57,59.53,25.18,74,1,1.47,OM,1604944891
175,Bethel,41.37,-73.41,23.33,33,1,1.5,US,1604944891
176,Nanortalik,60.14,-45.24,-2.6,95,100,4.71,GL,1604944892
177,Batangafo,7.3,18.28,27.92,51,74,1.42,CF,1604944892
178,Parrita,9.52,-84.32,25.56,73,40,4.6,CR,1604944892
179,Margate,51.38,1.39,13.89,92,59,1.79,GB,1604944893
180,Birin,26.89,88.07,12.0,75,0,2.02,NP,1604944893
181,Quime,-16.98,-67.22,17.48,50,69,3.67,BO,1604944893
182,Laguna,38.42,-121.42,9.44,45,1,2.1,US,1604944811
183,Yegros,-26.45,-56.4,21.77,91,100,4.03,PY,1604944893
184,Vostok,46.49,135.88,-15.66,95,93,1.76,RU,1604944893
185,Fairbanks,64.84,-147.72,-2.0,74,75,7.7,US,1604944570
186,Garoafa,45.78,27.2,7.0,93,90,6.2,RO,1604944894
187,Mahajanga,-15.72,46.32,28.0,65,20,3.1,MG,1604944894
188,Lodja,-3.48,23.43,22.09,97,100,0.83,CD,1604944894
189,Talnakh,69.49,88.4,-10.0,92,40,5.0,RU,1604944894
190,Hualmay,-11.1,-77.61,20.58,65,96,5.06,PE,1604944894
191,Oregon,44.0,-120.5,-1.11,79,69,2.52,US,1604944759
192,Kolda,12.88,-14.95,32.76,33,0,1.31,SN,1604944895
193,Ballina,-28.87,153.57,16.0,93,90,1.5,AU,1604944895
194,Altay,47.87,88.12,-1.25,85,38,1.2,CN,1604944895
195,Puerto Nariño,-3.77,-70.38,29.0,83,75,1.0,CO,1604944838
196,Vaghashen,40.14,45.33,6.43,60,4,1.05,AM,1604944895
197,Comodoro Rivadavia,-45.87,-67.5,20.0,49,0,5.1,AR,1604944896
198,Hadejia,12.45,10.04,26.81,19,5,3.17,NG,1604944896
199,Mar del Plata,-38.0,-57.56,21.0,73,75,6.2,AR,1604944784
200,Mitsamiouli,-11.38,43.28,26.31,77,30,6.14,KM,1604944896
201,Lagoa,39.05,-27.98,18.42,80,41,7.37,PT,1604944896
202,Progreso,21.28,-89.67,28.89,74,75,3.1,MX,1604944896
203,Muros,42.78,-9.06,14.44,86,2,0.89,ES,1604944897
204,Ilulissat,69.22,-51.1,-9.0,72,75,2.1,GL,1604944897
205,Isla Mujeres,21.23,-86.73,29.0,70,75,8.7,MX,1604944897
206,Buala,-8.14,159.59,26.87,80,0,2.68,SB,1604944897
207,Bathsheba,13.22,-59.52,27.0,83,40,5.7,BB,1604944897
208,Hanzhong,33.07,107.03,14.33,63,69,0.73,CN,1604944898
209,Hobyo,5.35,48.53,27.2,78,36,8.13,SO,1604944898
210,Yala,6.33,101.25,22.49,92,46,0.76,TH,1604944898
211,Puerto Escondido,15.85,-97.07,28.0,69,40,2.6,MX,1604944796
212,Ōdachō-ōda,35.18,132.5,12.13,51,78,4.1,JP,1604944898
213,Nsoko,-27.03,31.95,27.0,61,94,5.7,SZ,1604944899
214,Sitka,57.05,-135.33,6.0,87,75,1.54,US,1604944899
215,Taitung City,22.76,121.14,21.55,77,100,7.27,TW,1604944899
216,Vilhena,-12.74,-60.15,28.0,61,75,3.1,BR,1604944899
217,Bilma,18.69,12.92,23.33,28,0,3.52,NE,1604944899
218,Jalu,29.03,21.55,17.74,64,14,3.14,LY,1604944900
219,Isla Vista,34.41,-119.86,15.0,33,1,2.6,US,1604944900
220,Pierre,44.37,-100.35,-1.11,53,90,9.8,US,1604944860
221,Cape Town,-33.93,18.42,15.56,47,20,9.3,ZA,1604944644
222,Port Alfred,-33.59,26.89,16.52,60,100,4.39,ZA,1604944900
223,Bilibino,68.05,166.44,-19.76,90,96,0.52,RU,1604944901
224,Yārāda,17.65,83.27,23.0,78,0,1.0,IN,1604944901
225,Luwuk,-0.95,122.79,25.14,68,82,1.37,ID,1604944901
226,Sambava,-14.27,50.17,24.13,84,46,4.7,MG,1604944901
227,Coxim,-18.51,-54.76,37.21,30,100,3.92,BR,1604944901
228,Kununurra,-15.77,128.73,27.0,88,67,2.1,AU,1604944902
229,Khani,41.96,42.96,7.0,93,0,1.0,GE,1604944902
230,Zhigansk,66.77,123.37,-24.24,87,82,8.86,RU,1604944902
231,Kaniama,-7.57,24.18,20.74,95,89,2.74,CD,1604944902
232,Takaungu,-3.68,39.86,26.0,88,75,2.1,KE,1604944902
233,Jining,35.41,116.58,9.01,49,0,2.37,CN,1604944903
234,Panama City,8.99,-79.52,30.0,74,20,3.6,PA,1604944903
235,Aklavik,68.22,-135.01,-18.0,77,90,5.7,CA,1604944806
236,Maraã,-1.83,-65.37,32.93,51,93,1.32,BR,1604944903
237,Hamilton,39.18,-84.53,24.44,53,1,2.1,US,1604944903
238,Mount Gambier,-37.83,140.77,20.0,45,0,5.1,AU,1604944904
239,Palu,-0.89,119.87,23.69,81,78,1.28,ID,1604944904
240,Severo-Kuril'sk,50.68,156.12,2.45,90,100,10.1,RU,1604944904
241,General Roca,-39.03,-67.58,26.0,47,40,2.64,AR,1604944905
242,Kars,40.6,43.09,3.0,70,0,1.0,TR,1604944905
243,Narón,43.52,-8.15,14.44,82,20,2.1,ES,1604944905
244,Los Llanos de Aridane,28.66,-17.92,20.0,88,75,4.1,ES,1604944905
245,Waverly,42.74,-84.62,24.44,49,1,4.1,US,1604944905
246,Mahuva,21.09,71.76,26.41,34,0,4.22,IN,1604944905
247,Lázaro Cárdenas,17.96,-102.2,29.15,64,11,2.03,MX,1604944906
248,Daşoguz,41.84,59.97,3.0,55,0,2.1,TM,1604944710
249,Béboto,8.27,16.94,26.41,37,50,1.33,TD,1604944906
250,Kyren,51.68,102.14,0.78,79,2,1.04,RU,1604944906
251,Kahului,20.89,-156.47,23.33,73,40,5.68,US,1604944906
252,Florianópolis,-27.61,-48.5,22.22,88,75,2.6,BR,1604944785
253,Torbay,47.67,-52.73,3.89,64,90,10.3,CA,1604944907
254,Lavrentiya,65.58,-171.0,0.26,97,100,14.0,RU,1604944907
255,Jiangyou,31.77,104.72,17.55,68,89,0.52,CN,1604944908
256,Ponta Delgada,37.73,-25.67,19.0,72,75,6.2,PT,1604944908
257,Vila Franca do Campo,37.72,-25.43,19.0,72,75,6.2,PT,1604944908
258,Klyuchi,52.27,79.17,3.94,74,100,9.03,RU,1604944908
259,Phuthaditjhaba,-28.52,28.82,16.51,85,85,3.8,ZA,1604944908
260,Bulawayo,-20.15,28.58,28.15,27,98,3.41,ZW,1604944908
261,Davila,18.47,120.58,26.4,82,95,9.33,PH,1604944909
262,Altamont,42.21,-121.74,-0.56,58,1,3.1,US,1604944909
263,Tsogni,-2.79,10.1,23.19,89,100,0.92,GA,1604944909
264,Saldanha,-33.01,17.94,15.0,58,0,9.3,ZA,1604944909
265,Broken Hill,-31.95,141.43,25.0,31,40,5.1,AU,1604944883
266,Skibbereen,51.55,-9.27,11.0,100,75,1.5,IE,1604944910
267,Wagar,16.15,36.2,30.48,22,23,4.68,SD,1604944910
268,Blackwater,-23.58,148.88,16.68,74,18,3.36,AU,1604944910
269,Makanya,-4.37,37.83,23.45,79,94,3.11,TZ,1604944910
270,Nieuwpoort,51.12,2.77,14.0,93,75,1.5,BE,1604944910
271,Buta,2.79,24.73,23.45,76,78,1.47,CD,1604944911
272,Oeiras do Pará,-2.0,-49.85,34.15,46,72,2.64,BR,1604944911
273,Dekar,-21.53,21.93,31.27,23,21,2.67,BW,1604944911
274,Baruun-Urt,46.68,113.28,-1.09,86,0,5.39,MN,1604944911
275,Tawang Town,27.58,91.87,5.18,67,9,2.72,IN,1604944911
276,Provideniya,64.38,-173.3,0.66,95,100,16.84,RU,1604944827
277,Bolshaya Sosnova,57.67,54.6,-0.43,95,94,5.58,RU,1604944912
278,Ust'-Omchug,61.15,149.63,-20.6,87,98,2.53,RU,1604944912
279,Faya,18.39,42.45,19.0,82,0,1.71,SA,1604944912
280,Planaltina,-15.45,-47.61,30.0,45,75,2.6,BR,1604944913
281,Romny,50.75,33.47,7.19,81,74,1.73,UA,1604944913
282,Lofthus,59.95,10.8,3.89,94,94,0.37,NO,1604944913
283,Fuxin,42.02,121.66,0.55,76,0,1.04,CN,1604944849
284,Panjāb,34.39,67.02,-1.53,82,9,0.77,AF,1604944913
285,Safi,32.3,-9.24,19.39,80,0,8.4,MA,1604944914
286,Lüderitz,-26.65,15.16,17.3,52,0,14.95,NA,1604944812
287,Luang Prabang,19.89,102.13,16.65,66,0,0.91,LA,1604944914
288,Te Anau,-45.42,167.72,5.3,90,30,0.8,NZ,1604944832
289,Soyo,-6.13,12.37,25.51,84,96,4.38,AO,1604944914
290,Tshikapa,-6.42,20.8,23.04,92,100,2.03,CD,1604944914
291,Watrous,51.67,-105.47,-15.0,84,65,5.1,CA,1604944914
292,Kudahuvadhoo,2.67,72.89,28.93,73,87,4.8,MV,1604944915
293,Tabriz,38.08,46.29,9.0,81,40,3.1,IR,1604944915
294,Poum,-20.23,164.02,23.51,77,90,6.84,NC,1604944915
295,Dingle,11.0,122.67,24.21,86,95,1.12,PH,1604944915
296,Wuda,39.5,106.71,5.9,58,0,2.98,CN,1604944915
297,Port Hardy,50.7,-127.42,5.0,86,90,8.7,CA,1604944802
298,Shingū,33.73,135.98,8.36,74,0,3.02,JP,1604944916
299,Erciş,39.03,43.36,5.0,80,20,2.1,TR,1604944916
300,Tashtyp,52.79,89.9,-0.04,96,60,1.85,RU,1604944916
301,Sioux Lookout,50.1,-91.92,4.0,68,90,2.6,CA,1604944917
302,Guiratinga,-16.35,-53.76,31.38,47,100,1.42,BR,1604944917
303,Yarensk,62.17,49.09,-0.6,98,100,2.88,RU,1604944917
304,Khuzdar,27.74,66.64,14.84,26,0,1.76,PK,1604944884
305,Halifax,44.65,-63.57,15.56,76,20,6.7,CA,1604944622
306,Bay Roberts,47.6,-53.26,3.33,94,71,2.24,CA,1604944687
307,Nianzishan,47.52,122.88,-4.97,73,25,2.61,CN,1604944918
308,La Tuque,47.43,-72.78,11.0,71,68,3.37,CA,1604944918
309,Kristiansund,63.11,7.73,8.0,81,0,6.7,NO,1604944918
310,Igarka,67.47,86.58,-10.89,96,100,4.63,RU,1604944919
311,Nakonde,-9.34,32.74,22.51,44,14,5.39,ZM,1604944919
312,Airai,-8.93,125.41,16.43,88,100,1.08,TL,1604944827
313,Merauke,-8.47,140.33,26.23,80,100,6.32,ID,1604944919
314,Fortuna,40.6,-124.16,8.33,86,1,2.1,US,1604944919
315,Chui,-33.7,-53.46,19.91,66,100,5.26,UY,1604944920
316,Glendive,47.11,-104.71,-6.67,79,90,7.7,US,1604944920
317,Adrar,20.5,-10.07,30.86,12,0,3.35,MR,1604944920
318,Birao,10.28,22.79,26.6,29,12,2.09,CF,1604944920
319,Bumba,2.18,22.47,22.58,96,100,1.24,CD,1604944921
320,Ternate,0.8,127.4,26.94,77,70,1.79,ID,1604944921
321,La Libertad,-2.23,-80.9,25.0,65,40,5.1,EC,1604944921
322,Port Maria,18.37,-76.89,30.56,84,1,3.13,JM,1604944921
323,Mahon,39.89,4.27,17.0,88,40,2.1,ES,1604944922
324,Reserva,-24.65,-50.85,32.06,28,54,3.11,BR,1604944771
325,Bollnäs,61.35,16.39,3.46,82,88,1.1,SE,1604944922
326,Lompoc,34.64,-120.46,12.0,65,1,4.53,US,1604944793
327,Yangi Marg`ilon,40.43,71.72,4.0,86,40,2.1,UZ,1604944922
328,Sola,-13.88,167.55,27.46,81,95,4.93,VU,1604944923
329,Skjervøy,70.03,20.97,3.0,59,75,10.3,NO,1604944923
330,Milići,44.17,19.09,5.0,100,90,0.5,BA,1604944923
331,Smithers,54.78,-127.17,-2.0,92,90,2.1,CA,1604944788
332,Saravena,6.95,-71.88,32.23,48,27,1.16,CO,1604944923
333,Bubaque,11.28,-15.83,28.49,75,12,4.67,GW,1604944924
334,Klaksvík,62.23,-6.59,10.0,100,88,7.2,FO,1604944924
335,Anakapalle,17.68,83.02,23.0,78,0,1.0,IN,1604944924
336,Toamasina,-18.17,49.38,22.0,94,40,2.1,MG,1604944924
337,Krasnosel'kup,65.7,82.47,-13.13,95,84,2.95,RU,1604944924
338,Kushiro,42.98,144.37,2.05,84,65,5.06,JP,1604944925
339,Yei,4.09,30.68,21.22,91,56,1.0,SS,1604944925
340,Hīt,33.64,42.83,20.8,48,50,3.25,IQ,1604944873
341,Săcele,45.62,25.69,6.11,87,31,0.45,RO,1604944925
342,Anadyr,64.75,177.48,-1.0,80,40,12.0,RU,1604944925
343,Idaho Falls,43.47,-112.03,-2.78,79,90,1.5,US,1604944658
344,Okhotsk,59.38,143.3,-16.41,87,24,8.6,RU,1604944926
345,Innisfail,-17.53,146.03,22.74,87,71,2.51,AU,1604944763
346,Port Hedland,-20.32,118.57,25.0,73,0,5.7,AU,1604944817
347,Rosetta,31.4,30.42,21.0,73,40,1.5,EG,1604944926
348,Płońsk,52.62,20.38,8.0,75,75,1.5,PL,1604944926
349,Nísia Floresta,-6.09,-35.21,27.0,78,75,7.2,BR,1604944927
350,Yar-Sale,66.83,70.83,-13.75,94,99,3.48,RU,1604944927
351,Aguadilla,18.43,-67.15,30.0,83,75,3.6,PR,1604944927
352,San Juan Pueblo,15.58,-87.23,31.0,74,75,2.1,HN,1604944928
353,Iquique,-20.22,-70.14,20.0,60,40,5.7,CL,1604944772
354,Payakumbuh,-0.22,100.63,21.61,90,100,0.88,ID,1604944928
355,Santa Isabel Rio Negro,-0.41,-65.02,33.31,54,85,0.83,BR,1604944928
356,Nizhnyaya Tavda,57.67,66.17,-1.58,98,85,3.81,RU,1604944928
357,Gaoua,10.3,-3.25,29.46,22,83,2.2,BF,1604944929
358,Ahipara,-35.17,173.17,12.21,88,40,3.53,NZ,1604944929
359,Araguaína,-7.19,-48.21,34.4,38,73,2.85,BR,1604944929
360,Henties Bay,-22.12,14.28,15.56,78,0,2.68,NA,1604944929
361,Thinadhoo,0.53,72.93,28.83,71,98,4.68,MV,1604944929
362,Mauá,-23.67,-46.46,28.0,54,0,5.7,BR,1604944790
363,Miami,25.77,-80.19,29.44,78,75,8.7,US,1604944309
364,Kaberamaido,1.74,33.16,21.06,82,94,1.03,UG,1604944930
365,Coquimbo,-29.95,-71.34,16.0,72,75,5.1,CL,1604944821
366,Antofagasta,-23.65,-70.4,20.0,56,24,3.93,CL,1604944753
367,Vila Velha,-20.33,-40.29,30.0,66,20,7.7,BR,1604944560
368,Ufa,54.77,56.04,2.0,64,90,6.0,RU,1604944931
369,Murgab,37.5,61.97,9.0,70,8,2.1,TM,1604944931
370,Kem',64.96,34.58,1.74,86,94,6.21,RU,1604944931
371,Devonport,-41.17,146.35,12.22,93,94,3.08,AU,1604944931
372,Pisco,-13.7,-76.22,20.56,77,20,4.6,PE,1604944931
373,Alice Springs,-23.7,133.88,26.0,17,52,4.1,AU,1604944884
374,Esim,4.87,-2.24,26.51,82,63,3.29,GH,1604944932
375,Monte Alegre,-2.01,-54.07,34.79,37,60,3.86,BR,1604944932
376,Gigmoto,13.78,124.39,27.04,85,98,3.73,PH,1604944932
377,Ponta do Sol,32.67,-17.1,19.44,68,40,3.1,PT,1604944932
378,Doka,13.52,35.77,27.77,27,35,2.96,SD,1604944933
379,Road Town,18.42,-64.62,30.0,79,40,5.7,VG,1604944933
380,Kungurtug,50.6,97.52,-3.08,87,71,0.96,RU,1604944814
381,Guerrero Negro,27.98,-114.06,19.12,59,52,6.83,MX,1604944933
382,Karratha,-20.74,116.85,20.71,56,0,5.9,AU,1604944933
383,Collie,-33.37,116.15,12.22,69,54,3.86,AU,1604944934
384,Carballo,43.21,-8.69,14.0,82,20,2.1,ES,1604944827
385,Fallon,39.47,-118.78,-1.0,68,75,1.5,US,1604944934
386,Bandarbeyla,9.49,50.81,25.15,84,1,7.49,SO,1604944934
387,Itarema,-2.92,-39.92,30.77,57,10,8.97,BR,1604944935
388,Māndal,25.45,74.57,20.0,25,0,1.58,IN,1604944935
389,Bryan,30.67,-96.37,27.0,57,40,6.2,US,1604944935
390,Merrill,45.18,-89.68,19.0,82,90,6.2,US,1604944808
391,Baculin,7.45,126.58,25.31,80,97,2.32,PH,1604944935
392,San Andrés,12.58,-81.7,25.0,100,40,3.1,CO,1604944936
393,Price,39.6,-110.81,-2.0,100,90,4.1,US,1604944722
394,Svetlaya,46.54,138.33,-6.68,81,0,4.02,RU,1604944936
395,Liepāja,56.54,21.04,9.0,87,85,1.5,LV,1604944936
396,Miquelon,47.1,-56.38,7.0,100,75,8.2,PM,1604944936
397,Hasaki,35.73,140.83,7.0,87,40,3.6,JP,1604944936
398,Cururupu,-1.83,-44.87,30.0,65,100,3.89,BR,1604944936
399,Dixon,38.45,-121.82,12.78,29,1,5.1,US,1604944641
400,Albacete,38.83,-2.0,14.0,76,20,1.5,ES,1604944937
401,Seymchan,62.88,152.43,-20.31,88,100,1.78,RU,1604944938
402,Crixás,-14.55,-49.97,33.41,41,81,2.03,BR,1604944938
403,Gueugnon,46.6,4.06,12.78,93,0,0.5,FR,1604944938
404,Demirci,39.05,28.66,9.97,57,0,2.66,TR,1604944938
405,Muroto-misakicho,33.28,134.15,14.1,58,5,5.13,JP,1604944855
406,Teruel,40.67,-0.67,14.0,81,0,2.1,ES,1604944938
407,La Rioja,42.25,-2.5,13.89,93,20,1.01,ES,1604944939
408,Hofn,64.25,-15.21,9.0,93,90,7.7,IS,1604944939
409,Wanlaweyn,2.62,44.89,25.88,79,77,5.01,SO,1604944939
410,Sabang,5.89,95.32,27.37,77,97,2.15,ID,1604944960
411,Darnah,32.77,22.64,19.4,67,17,2.38,LY,1604944961
412,Paphos,34.77,32.42,19.0,63,20,3.1,CY,1604944961
413,Nouadhibou,20.93,-17.03,24.0,57,0,6.2,MR,1604944961
414,Gorontalo,0.54,123.06,23.13,80,98,0.93,ID,1604944962
415,Sinnamary,5.38,-52.95,29.56,64,34,4.11,GF,1604944962
416,Loveland,40.4,-105.08,2.0,81,90,3.6,US,1604944879
417,Mehamn,71.04,27.85,3.0,64,75,8.2,NO,1604944962
418,Ikom,5.97,8.71,26.23,70,54,1.36,NG,1604944963
419,Kuusamo,65.97,29.18,-1.0,86,0,3.6,FI,1604944963
420,Biltine,14.53,20.92,28.35,23,12,4.23,TD,1604944963
421,Batagay,67.63,134.63,-32.39,82,0,1.66,RU,1604944963
422,Hornepayne,49.21,-84.77,16.09,81,77,5.59,CA,1604944963
423,Ashibetsu,43.51,142.19,-0.98,97,100,1.08,JP,1604944964
424,Shelbyville,35.48,-86.46,26.67,57,1,6.2,US,1604944964
425,Emba,48.83,58.14,1.21,86,19,3.38,KZ,1604944964
426,Narasannapeta,18.42,84.05,21.14,67,0,2.8,IN,1604944964
427,Buchanan,5.88,-10.05,26.0,94,75,3.1,LR,1604944964
428,Kropotkin,45.44,40.58,9.8,81,6,1.41,RU,1604944964
429,Neyshabur,36.21,58.8,7.79,58,1,0.72,IR,1604944965
430,Grindavik,63.84,-22.43,8.0,93,90,7.2,IS,1604944965
431,Ningxiang,37.34,111.21,6.22,57,0,2.5,CN,1604944965
432,Pemangkat,1.17,108.97,25.08,87,100,2.9,ID,1604944965
433,Haines Junction,60.75,-137.51,0.0,90,91,9.8,CA,1604944965
434,Chumikan,54.72,135.31,-16.45,91,1,8.21,RU,1604944965
435,Inhambane,-23.86,35.38,28.0,78,20,2.6,MZ,1604944965
436,Santoña,43.44,-3.46,16.67,87,40,2.6,ES,1604944966
437,Novy Urengoy,66.08,76.63,-11.43,96,100,2.14,RU,1604944966
438,Adilcevaz,38.8,42.73,5.0,80,20,2.1,TR,1604944966
439,Río Tercero,-32.17,-64.11,26.67,45,87,1.79,AR,1604944966
440,Caucayá,-0.19,-74.78,33.97,46,16,2.23,CO,1604944967
441,Arecibo,18.47,-66.72,29.44,74,100,1.34,PR,1604944935
442,Sibolga,1.74,98.78,25.4,82,100,1.33,ID,1604944967
443,São Filipe,14.9,-24.5,27.55,72,27,2.4,CV,1604944967
444,Honningsvåg,70.98,25.97,4.0,64,75,12.9,NO,1604944967
445,Sørland,67.67,12.69,5.0,60,75,3.6,NO,1604944967
446,Labuhan,-6.88,112.21,26.47,79,100,2.62,ID,1604944967
447,Taku,39.02,117.65,4.0,69,0,1.0,CN,1604944968
448,Srednekolymsk,67.45,153.68,-22.59,91,100,2.21,RU,1604944968
449,Çermik,38.14,39.45,10.0,87,0,3.1,TR,1604944968
450,Olafsvik,64.89,-23.71,7.52,93,100,8.72,IS,1604944968
451,Imbituba,-28.24,-48.67,21.0,88,75,2.6,BR,1604944968
452,Japoatã,-10.35,-36.8,28.6,62,57,5.91,BR,1604944969
453,Ovsyanka,55.96,92.55,5.0,56,0,6.0,RU,1604944969
454,Leh,34.17,77.58,0.97,58,76,1.38,IN,1604944969
455,Mariakani,-3.86,39.47,26.0,88,75,2.1,KE,1604944970
456,Longyearbyen,78.22,15.64,-4.0,73,75,1.5,SJ,1604944815
457,Caravelas,-17.71,-39.25,28.22,60,87,4.16,BR,1604944970
458,Gmina Świecie,53.41,18.45,8.33,75,10,0.89,PL,1604944731
459,Guánica,17.97,-66.91,30.0,68,100,1.79,PR,1604944970
460,Alofi,-19.06,-169.92,22.0,94,40,3.1,NU,1604944970
461,Kīhei,20.79,-156.47,23.33,73,40,2.33,US,1604944708
462,Nanga Eboko,4.68,12.37,23.13,66,24,0.4,CM,1604944971
463,Oistins,13.07,-59.53,27.0,83,40,5.7,BB,1604944971
464,Chambas,22.19,-78.91,28.0,83,75,5.1,CU,1604944971
465,Dumas,35.87,-101.97,22.78,42,1,7.2,US,1604944971
466,Acapulco de Juárez,16.86,-99.89,30.0,62,20,1.5,MX,1604944949
467,Tautira,-17.73,-149.15,24.0,88,75,1.0,PF,1604944972
468,Amapá,1.0,-52.0,34.97,36,1,2.74,BR,1604944826
469,Périgueux,45.18,0.72,13.33,90,99,0.49,FR,1604944972
470,Maracaju,-21.61,-55.17,35.92,31,56,5.89,BR,1604944819
471,Ayan,56.45,138.17,-14.52,88,0,6.26,RU,1604944972
472,Okmulgee,35.62,-95.96,24.0,64,90,8.7,US,1604944973
473,Seybaplaya,19.65,-90.67,28.0,65,40,5.1,MX,1604944973
474,Arroyo de la Encomienda,41.61,-4.8,12.78,87,40,1.5,ES,1604944973
475,Arrondissement de Saint-Dizier,48.42,5.08,13.0,82,0,1.5,FR,1604944973
476,Hay River,60.82,-115.8,-6.0,73,69,5.1,CA,1604944973
477,Barra de Tecoanapa,16.52,-98.75,29.33,66,25,3.52,MX,1604944974
478,Svobodnyy,51.4,128.13,-13.92,92,0,1.38,RU,1604944974
479,Álamos,27.02,-108.93,26.11,51,50,0.45,MX,1604944974
480,Sumbe,-11.21,13.84,24.66,83,93,4.05,AO,1604944974
481,Bambanglipuro,-7.95,110.28,25.8,85,93,2.42,ID,1604944974
482,San Luis,-33.3,-66.34,29.04,26,54,2.81,AR,1604944869
483,Wenling,28.37,121.36,13.89,71,15,3.61,CN,1604944975
484,Concarneau,47.88,-3.92,14.0,93,67,2.6,FR,1604944975
485,Avera,33.19,-82.53,26.67,65,75,4.1,US,1604944975
486,Rosetown,51.55,-108.0,-11.11,85,0,3.6,CA,1604944975
487,Salalah,17.02,54.09,27.0,65,0,1.0,OM,1604944975
488,Port Lincoln,-34.73,135.87,22.65,38,15,8.25,AU,1604944975
489,Bloemfontein,-29.12,26.21,25.0,41,20,3.6,ZA,1604944976
490,Jinchang,38.5,102.17,3.89,56,0,0.4,CN,1604944976
491,San Patricio,28.02,-97.52,28.89,61,40,3.6,US,1604944826
492,Chicama,-7.84,-79.15,19.0,72,67,5.1,PE,1604944976
493,Vestmannaeyjar,63.44,-20.27,8.0,93,90,10.8,IS,1604944976
494,Oddur,4.12,43.89,25.44,65,64,3.68,SO,1604944976
495,Coruripe,-10.13,-36.18,27.66,69,34,6.32,BR,1604944977
496,Lusambo,-4.97,23.45,21.58,97,100,1.07,CD,1604944977
497,Truth or Consequences,33.13,-107.25,15.56,30,1,5.1,US,1604944977
498,Şile,41.18,29.61,16.67,68,87,2.24,TR,1604944977
499,Kirakira,-10.45,161.92,27.24,82,46,2.9,SB,1604944977
500,Villamontes,-21.25,-63.5,32.0,49,58,2.6,BO,1604944977
501,Issoire,45.55,3.25,12.0,71,75,1.5,FR,1604944978
502,Luena,-11.78,19.92,22.71,61,63,1.63,AO,1604944978
503,Dutse,11.76,9.34,25.59,26,1,3.12,NG,1604944978
504,Edd,13.93,41.69,28.47,53,0,7.95,ER,1604944978
505,Bogdanovich,56.78,62.05,-0.63,95,73,5.74,RU,1604944978
506,Korla,41.76,86.15,6.52,50,91,3.88,CN,1604944978
507,Prince Rupert,54.32,-130.32,6.0,93,90,4.6,CA,1604944676
508,Makakilo City,21.35,-158.09,26.0,78,40,1.5,US,1604944816
509,Grøa,62.65,8.72,8.0,81,0,6.7,NO,1604944979
510,San Rafael del Sur,11.85,-86.44,27.0,83,40,3.1,NI,1604944979
511,Galle,6.04,80.22,26.96,79,98,2.31,LK,1604944979
512,Harper,4.38,-7.72,26.52,81,69,3.14,LR,1604944979
513,Gbongan,7.47,4.35,26.07,63,93,0.38,NG,1604944980
514,Castrovillari,39.82,16.21,12.22,78,2,0.8,IT,1604944980
515,Anloga,5.79,0.9,29.0,74,20,4.6,GH,1604944980
516,Araouane,18.9,-3.53,30.16,14,0,3.29,ML,1604944980
517,Ustka,54.58,16.86,6.94,83,8,3.22,PL,1604944980
518,Sampit,-2.53,112.95,23.02,94,9,0.42,ID,1604944980
519,Qaqortoq,60.72,-46.03,-3.0,86,75,1.0,GL,1604944980
520,Ganzhou,28.82,115.43,12.38,47,0,1.87,CN,1604944981
521,Nhulunbuy,-12.23,136.77,26.0,83,60,4.23,AU,1604944872
522,Chiman,32.55,73.81,18.0,72,82,2.29,PK,1604944981
523,City of San Pedro,14.35,121.02,26.11,94,75,0.5,PH,1604944981
524,Olden,61.84,6.81,6.0,93,0,1.0,NO,1604944981
525,Beyneu,45.32,55.2,6.85,87,3,3.39,KZ,1604944982
526,Lochristi,51.11,3.86,13.89,77,52,1.98,BE,1604944982
527,Longkou,37.65,120.33,9.86,49,0,2.9,CN,1604944982
528,Katobu,-4.94,122.53,23.91,88,97,1.76,ID,1604944982
529,Tacuatí,-23.45,-56.58,36.16,32,100,3.23,PY,1604944983
530,Ilhabela,-23.78,-45.36,23.23,85,89,2.65,BR,1604944623
531,Whitehorse,60.72,-135.05,-3.0,79,75,3.1,CA,1604944781
532,Monrovia,6.3,-10.8,26.0,94,75,3.1,LR,1604944851
533,Laas,46.62,10.7,7.78,65,5,1.5,IT,1604944983
534,Malbork,54.04,19.03,7.22,100,0,2.15,PL,1604944984
535,Mount Isa,-20.73,139.5,23.0,38,0,5.62,AU,1604944984
536,Murakami,38.23,139.48,6.4,72,100,5.24,JP,1604944984
537,Bayir,37.27,28.22,15.0,72,0,2.1,TR,1604944984
538,Xiaolingwei,32.03,118.85,11.67,100,0,1.0,CN,1604944984
539,Saint-François,46.42,3.91,12.78,93,0,0.5,FR,1604944984
540,Waingapu,-9.66,120.26,26.81,72,100,1.86,ID,1604944985
541,Mabaruma,8.2,-59.78,27.98,88,30,2.25,GY,1604944985
542,Acolla,-11.73,-75.55,17.65,31,63,3.78,PE,1604944985
543,Toppenish,46.38,-120.31,3.0,64,1,2.1,US,1604944985
544,Krosno,49.69,21.77,2.78,99,72,1.41,PL,1604944985
545,Khingansk,49.12,131.18,-17.74,94,60,1.85,RU,1604944985
546,Petersburg,37.23,-77.4,23.89,60,75,2.1,US,1604944985
547,Port Macquarie,-31.43,152.92,13.33,93,37,2.25,AU,1604944893
548,Nha Trang,12.25,109.18,24.0,100,90,6.2,VN,1604944986
549,Shaunavon,49.65,-108.42,-14.0,84,68,6.2,CA,1604944986
550,Mogok,22.92,96.5,15.68,90,0,0.86,MM,1604944986
551,Santa Maria,-29.68,-53.81,22.8,75,99,3.73,BR,1604944937
552,Noumea,-22.28,166.46,18.0,72,40,5.22,NC,1604944889
553,Maţāy,28.42,30.78,21.84,57,88,3.69,EG,1604944987
554,Bongandanga,1.5,21.05,20.6,93,100,1.28,CD,1604944987
555,San Quintín,30.48,-115.95,16.68,51,66,5.46,MX,1604944987
556,Kajiado,-1.85,36.78,19.0,82,20,3.1,KE,1604944987
557,Mongoumba,3.64,18.59,23.54,87,93,1.24,CF,1604944988
558,Hammerfest,70.66,23.68,1.0,100,75,2.6,NO,1604944626
